[
{"location":[102.560235,35.393046],"name":"甘加秘境(入口)","title":"","tag":"甘南","address":"","remark":"","time":1750654316878},
{"location":[102.513358,35.193041],"name":"拉卜楞寺","title":"","tag":"甘南","address":"","remark":"","time":1750654316878},
{"location":[102.326438,34.237005],"name":"甘肃尕海则岔自然保护区尕海湖停车场","title":"尕海则岔自然保护区","tag":"甘南","address":"","remark":"","time":1750654316878},
{"location":[102.640739,34.092275],"name":"郎木寺","title":"","tag":"甘南","address":"","remark":"","time":1750654316878},
{"location":[103.19622,34.235821],"name":"扎尕那","title":"","tag":"甘南","address":"","remark":"","time":1750654316878},
{"location":[103.094628,34.456633],"name":"洛克之路旅游服务中心","title":"","tag":"甘南","address":"","remark":"","time":1750654316878},
{"location":[102.828661,33.9335],"name":"花湖生态旅游区","title":"","tag":"甘南,川西","address":"","remark":"","time":1750654316878},
{"location":[102.48773,33.46428],"name":"九曲黄河第一湾景区游客中心","title":"九曲黄河第一湾","tag":"甘南,川西","address":"","remark":"","time":1750654316878},
{"location":[102.491446,33.37761],"name":"若尔盖大草原自然区","title":"","tag":"甘南,川西","address":"","remark":"","time":1750654316878},
{"location":[101.349631,33.003907],"name":"莲宝叶则景区","title":"","tag":"甘南,川西","address":"","remark":"","time":1750654316878},
{"location":[102.768785,30.978815],"name":"四姑娘山景区-四姑娘山双桥沟停车场","title":"四姑娘山双桥沟","tag":"川西","address":"","remark":"","time":1750654316878},
{"location":[101.868605,30.921073],"name":"甲居藏寨","title":"","tag":"川西","address":"","remark":"","time":1750654316878},
{"location":[100.472477,32.150521],"name":"色达喇荣五明佛学院","title":"色达五明佛学院","tag":"甘南,川西","address":"洛若镇喇荣沟","remark":"","time":1750681249816},
{"location":[101.5424,30.444886],"name":"墨石公园景区","title":"","tag":"川西","address":"","remark":"","time":1750654316878},
{"location":[101.55496,30.32993],"name":"塔公草原","title":"","tag":"川西","address":"","remark":"","time":1750654316878},
{"location":[101.559227,30.090253],"name":"鱼子西","title":"","tag":"川西","address":"","remark":"","time":1750654316878},
{"location":[101.641436,30.182292],"name":"新都桥最佳观景台","title":"","tag":"川西","address":"","remark":"","time":1750654316878},
{"location":[101.548593,30.03642],"name":"新都桥镇","title":"","tag":"川西","address":"","remark":"","time":1750654316878},
{"location":[101.531681,30.043404],"name":"贡嘎雪山观景台","title":"","tag":"川西","address":"","remark":"","time":1750654316878},
{"location":[101.872437,30.170233],"name":"康定情歌(木格措)风景区","title":"康定情歌(木格措)","tag":"川西","address":"","remark":"","time":1750654316878},
{"location":[102.231147,29.911887],"name":"泸定桥售票处","title":"","tag":"川西","address":"","remark":"","time":1750654316878},
{"location":[100.134908,30.732334],"name":"措卡湖风景点","title":"","tag":"川西","address":"","remark":"","time":1750654316878},
{"location":[99.447902,30.342664],"name":"措普沟景区","title":"","tag":"川西","address":"","remark":"","time":1750654316878},
{"location":[99.643848,29.82279],"name":"格聂神山","title":"","tag":"川西","address":"","remark":"","time":1750654316878},
{"location":[100.286793,28.458898],"name":"甘孜稻城亚丁景区","title":"稻城亚丁","tag":"川西","address":"","remark":"","time":1750654316878},
{"location":[113.010606,25.784632],"name":"郴州市北湖区人民政府","title":"北湖区人民政府","tag":"","address":"骆仙西路2号","remark":"","time":1750672499168},
{"location":[103.951229,30.559807],"name":"成都双流国际机场","title":"","tag":"","address":"机场北二路","remark":"","time":1750672598974},
{"location":[108.761101,34.436581],"name":"咸阳机场(公交站)","title":"咸阳机场","tag":"","address":"","remark":"","time":1750672679858},
{"location":[103.616581,36.503483],"name":"兰州中川国际机场(公交站)","title":"兰州中川国际机场","tag":"","address":"","remark":"","time":1750672722866},
{"location":[102.569712,35.003086],"name":"桑科草原","title":"","tag":"甘南","address":"塞祥路249号","remark":"不推荐","time":1751024293493},
{"location":[103.22154,35.057083],"name":"美仁大草原","title":"","tag":"甘南","address":"佐盖多玛乡江达段北50米","remark":"","time":1751024372447},
{"location":[102.312689,34.310373],"name":"郭莽湿地","title":"","tag":"甘南","address":"尕海镇尕海湖尕海则岔自然保护区","remark":"黑颈鹤","time":1751024552209},
{"location":[101.689741,33.769567],"name":"阿万仓湿地公园售票处","title":"","tag":"甘南","address":"阿万仓镇贡赛村退役军人服务站东北侧90米","remark":"比另一个湿地更好","time":1751024598567},
{"location":[102.915316,35.00612],"name":"安多合作米拉日巴佛阁","title":"","tag":"甘南","address":"坚木克尔街道那吾镇那吾路铁坝路交叉口安多合作寺院","remark":"九层","time":1751024714319},
{"location":[102.146922,33.865807],"name":"河曲马场景区","title":"","tag":"甘南","address":"河曲马场1号","remark":"","time":1751024812476},
{"location":[103.189018,34.65395],"name":"扎古录镇","title":"","tag":"甘南","address":"","remark":"","time":1751025391329},
{"location":[99.822396,29.827452],"name":"格聂镇","title":"","tag":"川西","address":"","remark":"","time":1751029529881},
{"location":[99.662695,29.741318],"name":"则巴村村民委员会","title":"","tag":"川西","address":"人社社保就业服务窗口(格聂镇则巴村)东侧150米","remark":"","time":1751029798455},
{"location":[99.604996,30.942247],"name":"亚青寺观景平台","title":"","tag":"川西","address":"037县道","remark":"","time":1751030121366},
{"location":[99.771888,31.146844],"name":"拉龙措国家湿地公园","title":"","tag":"川西","address":"措日阿索马","remark":"拉龙措 4200M","time":1751030191619},
{"location":[99.760571,29.794931],"name":"格聂之眼","title":"","tag":"川西","address":"海子山国家级自然保护区格聂景区","remark":"","time":1751030481694},
{"location":[99.747367,29.788956],"name":"乃干多村村民委员会","title":"","tag":"川西","address":"人社社保就业服务窗口(格聂镇乃干多村综合服务站)东侧140米","remark":"","time":1751030712330},
{"location":[99.776314,29.827629],"name":"格聂别院","title":"","tag":"川西","address":"喇嘛垭乡然日卡村3组26号","remark":"","time":1751030827398},
{"location":[99.797835,29.847308],"name":"伊拉卡观景台","title":"","tag":"川西","address":"","remark":"","time":1751030859754},
{"location":[99.078336,36.75991],"name":"茶卡盐湖景区","title":"","tag":"青甘","address":"盐湖路9号","remark":"","time":1751967559337},
{"location":[99.173447,36.716339],"name":"茶卡盐湖天空壹号","title":"","tag":"青甘","address":"茶卡盐湖东部","remark":"","time":1751967568737},
{"location":[95.265841,37.866427],"name":"大柴旦翡翠湖","title":"","tag":"青甘","address":"大柴旦行政区大柴旦硼化工业基地西南4千米","remark":"","time":1751967628865},
{"location":[95.36119,37.849028],"name":"大柴旦行委柴旦镇人民政府","title":"","tag":"青甘","address":"团结路10号","remark":"","time":1751967656515},
{"location":[93.773859,37.617639],"name":"乌素特(水上)雅丹地质公园","title":"","tag":"青甘","address":"大柴旦行政委员会西台2号","remark":"","time":1751967689841},
{"location":[94.680396,40.088833],"name":"鸣沙山月牙泉","title":"","tag":"青甘","address":"鸣山路","remark":"","time":1751967717921},
{"location":[94.76755,40.162726],"name":"莫高窟景区停车场","title":"","tag":"青甘","address":"莫高窟景区","remark":"","time":1751967742569},
{"location":[98.228494,39.801021],"name":"嘉峪关文物景区","title":"","tag":"青甘","address":"峪泉镇","remark":"","time":1751967793041},
{"location":[100.062804,38.97201],"name":"张掖七彩丹霞景区","title":"","tag":"青甘","address":"213省道张掖丹霞国家地质公园内","remark":"","time":1751967808665},
{"location":[100.944329,37.959695],"name":"祁连山大草原","title":"","tag":"青甘","address":"227国道","remark":"","time":1751967863915},
{"location":[101.440437,37.47679],"name":"浪漫花海走廊","title":"","tag":"青甘","address":"百里油菜花景区内","remark":"","time":1751967896745},
{"location":[102.041555,36.527142],"name":"西宁曹家堡国际机场","title":"","tag":"青甘","address":"中关村东路8号","remark":"","time":1751967934089},
{"location":[100.427104,38.501373],"name":"马蹄寺千佛洞","title":"","tag":"青甘","address":"大都麻乡马蹄寺风光旅游区","remark":"","time":1751968352042},
{"location":[99.346143,38.626834],"name":"二尕公路","title":"","tag":"青甘","address":"祁连县","remark":"","time":1751968428834},
{"location":[100.193138,38.208071],"name":"二尕公路与黄藏寺公路交叉口","title":"","tag":"青甘","address":"祁连县","remark":"","time":1751968461762},

{"location":[101.731299,36.629733],"name":"青藏高原野生动物园售票处","title":"","tag":"青甘","address":"虎台街道行知路9号青藏高原野生动物园","remark":"","time":1751970169729},
{"location":[101.786945,36.621717],"name":"大新街夜市","title":"","tag":"青甘","address":"饮马街街道兴隆巷14号","remark":"","time":1751970214213},
{"location":[99.831149,37.197137],"name":"青海湖断崖","title":"","tag":"青甘","address":"达秀木拉布宰","remark":"不能开车进去，购买摆渡车票，风大，H3200M","time":1751970417851},
{"location":[100.854378,36.987176],"name":"金银滩草原","title":"","tag":"青甘","address":"315国道","remark":"","time":1751970548410},
{"location":[99.700023,36.852322],"name":"青海湖东格尔观景台","title":"","tag":"青甘","address":"石乃亥镇","remark":"","time":1751970747468},
{"location":[99.607378,36.754247],"name":"橡皮山垭口","title":"","tag":"青甘","address":"109国道","remark":"H3800","time":1751970994300},
{"location":[95.271976,36.860994],"name":"察尔汗盐湖景区","title":"","tag":"青甘","address":"游客接待驿站西南侧","remark":"白沙盐，绿水","time":1751971204148},
{"location":[93.981433,37.53826],"name":"东台吉乃尔湖网红打卡点","title":"","tag":"青甘","address":"东台吉乃儿湖观景口西南侧140米","remark":"附近酒店超贵较远","time":1751973115000},
{"location":[93.334715,38.733254],"name":"冷湖镇人民政府","title":"","tag":"青甘","address":"冷湖镇兴湖街","remark":"","time":1751974617708},
{"location":[93.402935,38.819978],"name":"冷湖石油基地遗址","title":"","tag":"青甘","address":"冷湖镇冷湖行政委员会S305","remark":"","time":1751974887299},
{"location":[93.399506,38.812748],"name":"黑独山风景区","title":"","tag":"青甘","address":"215国道","remark":"","time":1751975058474},
{"location":[95.243387,37.511263],"name":"大柴旦红崖火星地貌景观区","title":"","tag":"青甘","address":"大柴旦红崖火星地貌景观区北侧","remark":"","time":1751982622158},
{"location":[94.965896,37.389371],"name":"U型公路","title":"","tag":"青甘","address":"柴旦镇315国道780公里处","remark":"","time":1751982642498},
{"location":[95.789568,40.399955],"name":"戈壁方舟","title":"","tag":"青甘","address":"","remark":"","time":1751983914313},
{"location":[95.839042,40.382224],"name":"雕塑大地之子","title":"","tag":"青甘","address":"锁阳城镇270县道红山坡东北400米","remark":"","time":1751983934228},
{"location":[95.933898,40.061269],"name":"榆林窟","title":"","tag":"甘南","address":"南75公里的榆林河(亦名踏实河)畔","remark":"替代敦煌莫高窟","time":1751984067187},
{"location":[100.940454,38.22052],"name":"扁都口生态休闲旅游区南停车场","title":"","tag":"青甘","address":"227国道扁都口生态休闲旅游区","remark":"","time":1751984448642},
{"location":[100.91925,37.999934],"name":"俄博岭垭口","title":"","tag":"青甘","address":"俄博岭","remark":"","time":1751984646250}
  
]
